{
"type": "FeatureCollection",
"crs": { "type": "name", "properties": { "name": "urn:ogc:def:crs:OGC:1.3:CRS84" } },
                                                                                                                                  
"features": [
{ "type": "Feature", "properties": { "original address": "A-Z Wohnhilfen Berlin gGmbH,Braunschweiger Straße 17,12055,Berlin", "latitude": 52.473090, "longitude": 13.453069 }, "geometry": { "type": "Point", "coordinates": [ 13.453069, 52.47309 ] } },
{ "type": "Feature", "properties": { "original address": "Azam Getränkeshop,Braunschweiger Straße 58,12055,Berlin", "latitude": 52.471100, "longitude": 13.445570 }, "geometry": { "type": "Point", "coordinates": [ 13.44557, 52.4711 ] } },
{ "type": "Feature", "properties": { "original address": "Badkultur Berlin,Braunschweiger Straße 16,12055,Berlin", "latitude": 52.473247, "longitude": 13.452655 }, "geometry": { "type": "Point", "coordinates": [ 13.452655, 52.473247 ] } },
{ "type": "Feature", "properties": { "original address": "Bierbaronesse,Braunschweiger Straße 46,12055,Berlin", "latitude": 52.471249, "longitude": 13.447547 }, "geometry": { "type": "Point", "coordinates": [ 13.447547, 52.471249 ] } },
{ "type": "Feature", "properties": { "original address": "Café-Bar Mal so – Mal so,Böhmische Str. 14,12055,Berlin", "latitude": 52.471345, "longitude": 13.449973 }, "geometry": { "type": "Point", "coordinates": [ 13.449973, 52.471345 ] } },
{ "type": "Feature", "properties": { "original address": "DAS KAPiTAL,Karl-Marx-Platz 18,12043,Berlin", "latitude": 52.473827, "longitude": 13.442670 }, "geometry": { "type": "Point", "coordinates": [ 13.44267, 52.473827 ] } },
{ "type": "Feature", "properties": { "original address": "Buchhandlung „Die gute Seite“,Richardplatz 16,12055,Berlin", "latitude": 52.473710, "longitude": 13.444990 }, "geometry": { "type": "Point", "coordinates": [ 13.44499, 52.47371 ] } },
{ "type": "Feature", "properties": { "original address": "Dr. Pogo Veganladen-Kollektiv,Karl-Marx-Platz 24,12043,Berlin", "latitude": 52.473983, "longitude": 13.443341 }, "geometry": { "type": "Point", "coordinates": [ 13.443341, 52.473983 ] } },
{ "type": "Feature", "properties": { "original address": "gefahrenzone,Braunschweiger Straße 16,12055,Berlin", "latitude": 52.473247, "longitude": 13.452655 }, "geometry": { "type": "Point", "coordinates": [ 13.452655, 52.473247 ] } },
{ "type": "Feature", "properties": { "original address": "Grünes Bürger*innen Büro,Wipperstraße 25,12055,Berlin", "latitude": 52.470200, "longitude": 13.442700 }, "geometry": { "type": "Point", "coordinates": [ 13.4427, 52.4702 ] } },
{ "type": "Feature", "properties": { "original address": "Löwenzahn-Schule,Drorystraße 3,12055,Berlin", "latitude": 52.472499, "longitude": 13.448771 }, "geometry": { "type": "Point", "coordinates": [ 13.448771, 52.472499 ] } },
{ "type": "Feature", "properties": { "original address": "Haarnomade,Hetzbergstraße,12055,Berlin", "latitude": 52.471345, "longitude": 13.449973 }, "geometry": { "type": "Point", "coordinates": [ 13.449973, 52.471345 ] } },
{ "type": "Feature", "properties": { "original address": "Heute ist Morgen,Kirchhofstraße 45,12055,Berlin", "latitude": 52.472460, "longitude": 13.443830 }, "geometry": { "type": "Point", "coordinates": [ 13.44383, 52.47246 ] } },
{ "type": "Feature", "properties": { "original address": "ITZ – Interkulturelles Theaterzentrum Berlin e.V.,Schudomastraße 32,12055,Berlin", "latitude": 52.472700, "longitude": 13.453510 }, "geometry": { "type": "Point", "coordinates": [ 13.45351, 52.4727 ] } },
{ "type": "Feature", "properties": { "original address": "Kita Großstadtzwerge,Braunschweiger Straße 57,12055,Berlin", "latitude": 52.470752, "longitude": 13.445996 }, "geometry": { "type": "Point", "coordinates": [ 13.445996, 52.470752 ] } },
{ "type": "Feature", "properties": { "original address": "Kinderladen „Kleine Fische“ Kleinkindpädagogik e.V.,Schöneweider Straße 20,12055,Berlin", "latitude": 52.471815, "longitude": 13.444240 }, "geometry": { "type": "Point", "coordinates": [ 13.44424, 52.471815 ] } },
{ "type": "Feature", "properties": { "original address": "Königliche Backstube,Zwiestädter Straße 12,12055,Berlin", "latitude": 52.473130, "longitude": 13.447950 }, "geometry": { "type": "Point", "coordinates": [ 13.44795, 52.47313 ] } },
{ "type": "Feature", "properties": { "original address": "Neon Neue Energieökonomik GmbH,Karl-Marx-Platz 12,12043,Berlin", "latitude": 52.473510, "longitude": 13.442140 }, "geometry": { "type": "Point", "coordinates": [ 13.44214, 52.47351 ] } },
{ "type": "Feature", "properties": { "original address": "Quartiersmanagement Richardplatz Süd,Böhmische Straße 9,12055,Berlin", "latitude": 52.471345, "longitude": 13.449973 }, "geometry": { "type": "Point", "coordinates": [ 13.449973, 52.471345 ] } },
{ "type": "Feature", "properties": { "original address": "Weinhandlung Balera,Karl-Marx-Platz 6,12043,Berlin", "latitude": 52.473601, "longitude": 13.441625 }, "geometry": { "type": "Point", "coordinates": [ 13.441625, 52.473601 ] } },
{ "type": "Feature", "properties": { "original address": "dm-drogeriemarkt GmbH & Co. KG,Karl-Marx-Straße 92-98,12053,Berlin", "latitude": 52.479879, "longitude": 13.435885 }, "geometry": { "type": "Point", "coordinates": [ 13.435885, 52.479879 ] } },
{ "type": "Feature", "properties": { "original address": "Hausarztpraxis Dr. Robert Holzer,Karl-Marx-Straße 172,12043,Berlin", "latitude": 52.474750, "longitude": 13.439610 }, "geometry": { "type": "Point", "coordinates": [ 13.43961, 52.47475 ] } },
{ "type": "Feature", "properties": { "original address": "Bottega Nr. 6,Richardstraße 6,12043,Berlin", "latitude": 52.478208, "longitude": 13.438745 }, "geometry": { "type": "Point", "coordinates": [ 13.438745, 52.478208 ] } },
{ "type": "Feature", "properties": { "original address": "Café Dritter Raum,Hertzbergstraße 14,12055,Berlin", "latitude": 52.477160, "longitude": 13.448060 }, "geometry": { "type": "Point", "coordinates": [ 13.44806, 52.47716 ] } },
{ "type": "Feature", "properties": { "original address": "Kinder Second-Handladen Pünktchen & Caro,Richardstraße 7,12043,Berlin", "latitude": 52.478035, "longitude": 13.439034 }, "geometry": { "type": "Point", "coordinates": [ 13.439034, 52.478035 ] } },
{ "type": "Feature", "properties": { "original address": "Bike Mike,Allerstraße 35,12049,Berlin", "latitude": 52.474694, "longitude": 13.423496 }, "geometry": { "type": "Point", "coordinates": [ 13.423496, 52.474694 ] } },
{ "type": "Feature", "properties": { "original address": "Bloomage Daydream,Selchower Straße 27,12049,Berlin", "latitude": 52.478698, "longitude": 13.422587 }, "geometry": { "type": "Point", "coordinates": [ 13.422587, 52.478698 ] } },
{ "type": "Feature", "properties": { "original address": "Café Blume,Fontanestraße 32,12049,Berlin", "latitude": 52.481744, "longitude": 13.421342 }, "geometry": { "type": "Point", "coordinates": [ 13.421342, 52.481744 ] } },
{ "type": "Feature", "properties": { "original address": "Café Lipopette,Warthestraße 9,12051,Berlin", "latitude": 52.470330, "longitude": 13.427190 }, "geometry": { "type": "Point", "coordinates": [ 13.42719, 52.47033 ] } },
{ "type": "Feature", "properties": { "original address": "China By Bike,Karlsgartenstraße 19,12049,Berlin", "latitude": 52.482030, "longitude": 13.423290 }, "geometry": { "type": "Point", "coordinates": [ 13.42329, 52.48203 ] } },
{ "type": "Feature", "properties": { "original address": "Ella die Zweiräder,Herrfurthstraße 1,12049,Berlin", "latitude": 52.477603, "longitude": 13.425560 }, "geometry": { "type": "Point", "coordinates": [ 13.42556, 52.477603 ] } },
{ "type": "Feature", "properties": { "original address": "English Traders,Weisestraße 58,12049,Berlin", "latitude": 52.478533, "longitude": 13.423843 }, "geometry": { "type": "Point", "coordinates": [ 13.423843, 52.478533 ] } },
{ "type": "Feature", "properties": { "original address": "FiPP e.V. – Kita Warthestraße,Warthestraße 62a,12051,Berlin", "latitude": 52.469820, "longitude": 13.426170 }, "geometry": { "type": "Point", "coordinates": [ 13.42617, 52.46982 ] } },
{ "type": "Feature", "properties": { "original address": "Guido’s Fahrradwelt,Hermannstraße 32,12049,Berlin", "latitude": 52.481450, "longitude": 13.424360 }, "geometry": { "type": "Point", "coordinates": [ 13.42436, 52.48145 ] } },
{ "type": "Feature", "properties": { "original address": "Kita Horizon e.V.,Warthestraße 15,12051,Berlin", "latitude": 52.470310, "longitude": 13.425510 }, "geometry": { "type": "Point", "coordinates": [ 13.42551, 52.47031 ] } },
{ "type": "Feature", "properties": { "original address": "Lesotre \/ Conceptual Brand Creation,Wissmannstraße 5,12049,Berlin", "latitude": 52.485292, "longitude": 13.423473 }, "geometry": { "type": "Point", "coordinates": [ 13.423473, 52.485292 ] } },
{ "type": "Feature", "properties": { "original address": "N°58 Speiserei,Weisestraße 58,12049,Berlin", "latitude": 52.478533, "longitude": 13.423843 }, "geometry": { "type": "Point", "coordinates": [ 13.423843, 52.478533 ] } },
{ "type": "Feature", "properties": { "original address": "Salon Daniela,Herrfurthstraße 12,12049,Berlin", "latitude": 52.477140, "longitude": 13.420550 }, "geometry": { "type": "Point", "coordinates": [ 13.42055, 52.47714 ] } },
{ "type": "Feature", "properties": { "original address": "Quartiersmanagement Schillerpromenade,Schillerpromenade 10,12049,Berlin", "latitude": 52.476030, "longitude": 13.421770 }, "geometry": { "type": "Point", "coordinates": [ 13.42177, 52.47603 ] } },
{ "type": "Feature", "properties": { "original address": "BioCompany,Hermannstraße 199,12049,Berlin", "latitude": 52.475260, "longitude": 13.427910 }, "geometry": { "type": "Point", "coordinates": [ 13.42791, 52.47526 ] } },
{ "type": "Feature", "properties": { "original address": "dm-drogeriemarkt GmbH & Co.KG,Hasenheide 107-108,10967,Berlin", "latitude": 52.485940, "longitude": 13.421519 }, "geometry": { "type": "Point", "coordinates": [ 13.421519, 52.48594 ] } },
{ "type": "Feature", "properties": { "original address": "Nuts & Co.,Hermannstraße 52,12049,Berlin", "latitude": 52.477778, "longitude": 13.425873 }, "geometry": { "type": "Point", "coordinates": [ 13.425873, 52.477778 ] } },
{ "type": "Feature", "properties": { "original address": "Taschengeldfirma e.V.\/Radwerkstatt ThF,Flughafenstraße 62,12049,Berlin", "latitude": 52.481030, "longitude": 13.424060 }, "geometry": { "type": "Point", "coordinates": [ 13.42406, 52.48103 ] } },
{ "type": "Feature", "properties": { "original address": "Amalia – Café\/Bar,Nogatstraße 6,12051,Berlin", "latitude": 52.470090, "longitude": 13.436764 }, "geometry": { "type": "Point", "coordinates": [ 13.436764, 52.47009 ] } },
{ "type": "Feature", "properties": { "original address": "Home Café,Jonasstraße 23,12053,Berlin", "latitude": 52.471720, "longitude": 13.433360 }, "geometry": { "type": "Point", "coordinates": [ 13.43336, 52.47172 ] } },
{ "type": "Feature", "properties": { "original address": "Leuchtstoff – Kaffeebar,Siegfriedstraße 18,12051,Berlin", "latitude": 52.468390, "longitude": 13.432490 }, "geometry": { "type": "Point", "coordinates": [ 13.43249, 52.46839 ] } },
{ "type": "Feature", "properties": { "original address": "Nachbarschaftsheim Neukölln e.V.,Schierker Straße 53,12051,Berlin", "latitude": 52.470698, "longitude": 13.438504 }, "geometry": { "type": "Point", "coordinates": [ 13.438504, 52.470698 ] } },
{ "type": "Feature", "properties": { "original address": "Nini e Pettirosso – Pizzeria,Selkestraße 27,12051,Berlin", "latitude": 52.470198, "longitude": 13.436853 }, "geometry": { "type": "Point", "coordinates": [ 13.436853, 52.470198 ] } },
{ "type": "Feature", "properties": { "original address": "Peter-Petersen-Schule,Jonasstraße 15,12053,Berlin", "latitude": 52.471890, "longitude": 13.435480 }, "geometry": { "type": "Point", "coordinates": [ 13.43548, 52.47189 ] } },
{ "type": "Feature", "properties": { "original address": "Prachtsaal,Jonasstraße 22,12053,Berlin", "latitude": 52.471551, "longitude": 13.433723 }, "geometry": { "type": "Point", "coordinates": [ 13.433723, 52.471551 ] } },
{ "type": "Feature", "properties": { "original address": "WerkStadt Berlin e.V.,Emser Straße 124,12051,Berlin", "latitude": 52.469078, "longitude": 13.436226 }, "geometry": { "type": "Point", "coordinates": [ 13.436226, 52.469078 ] } },
{ "type": "Feature", "properties": { "original address": "ZINS Organic Haircare Salon,Thomasstraße 59,12053,Berlin", "latitude": 52.472247, "longitude": 13.432700 }, "geometry": { "type": "Point", "coordinates": [ 13.4327, 52.472247 ] } },
{ "type": "Feature", "properties": { "original address": "die marktplaner,Sanderstraße 4,12047,Berlin", "latitude": 52.492090, "longitude": 13.423950 }, "geometry": { "type": "Point", "coordinates": [ 13.42395, 52.49209 ] } },
{ "type": "Feature", "properties": { "original address": "nbBildungsconsulting,Reuterstraße 51,12047,Berlin", "latitude": 52.489380, "longitude": 13.428210 }, "geometry": { "type": "Point", "coordinates": [ 13.42821, 52.48938 ] } },
{ "type": "Feature", "properties": { "original address": "standard saubere sachen,Reuterstraße 53,12047,Berlin", "latitude": 52.489075, "longitude": 13.428832 }, "geometry": { "type": "Point", "coordinates": [ 13.428832, 52.489075 ] } },
{ "type": "Feature", "properties": { "original address": "Upcycling,Hobrechtstraße 54,12047,Berlin", "latitude": 52.491900, "longitude": 13.425490 }, "geometry": { "type": "Point", "coordinates": [ 13.42549, 52.4919 ] } },
{ "type": "Feature", "properties": { "original address": "Däumelarchiv,Elbestraße 15,12045,Berlin", "latitude": 52.484900, "longitude": 13.441400 }, "geometry": { "type": "Point", "coordinates": [ 13.4414, 52.4849 ] } },
{ "type": "Feature", "properties": { "original address": "Café Rudimarie,Weichselstraße 34,12045,Berlin", "latitude": 52.489060, "longitude": 13.438430 }, "geometry": { "type": "Point", "coordinates": [ 13.43843, 52.48906 ] } },
{ "type": "Feature", "properties": { "original address": "Moghul Rikschas,Elbestraße 1,12045,Berlin", "latitude": 52.482848, "longitude": 13.438620 }, "geometry": { "type": "Point", "coordinates": [ 13.43862, 52.482848 ] } },
{ "type": "Feature", "properties": { "original address": "spreegut Lehr- und Kreativitätsmethoden,Elbestraße 28,12045,Berlin", "latitude": 52.484767, "longitude": 13.440547 }, "geometry": { "type": "Point", "coordinates": [ 13.440547, 52.484767 ] } },
{ "type": "Feature", "properties": { "original address": "Veltliner & Co,Wildenbruchstraße 32b,12045,Berlin", "latitude": 52.487200, "longitude": 13.450060 }, "geometry": { "type": "Point", "coordinates": [ 13.45006, 52.4872 ] } },
{ "type": "Feature", "properties": { "original address": "BioCompany,Sonnenallee 60,12045,Berlin", "latitude": 52.484518, "longitude": 13.433729 }, "geometry": { "type": "Point", "coordinates": [ 13.433729, 52.484518 ] } },
{ "type": "Feature", "properties": { "original address": "STIL Kooperation Berlin,Sonnenalle 58,12045,Berlin", "latitude": 52.486719, "longitude": 13.434371 }, "geometry": { "type": "Point", "coordinates": [ 13.434371, 52.486719 ] } },
{ "type": "Feature", "properties": { "original address": "Hausverwaltung Dr. Hoffmann,Neckarstraße 5,12053,Berlin", "latitude": 52.480414, "longitude": 13.434319 }, "geometry": { "type": "Point", "coordinates": [ 13.434319, 52.480414 ] } },
{ "type": "Feature", "properties": { "original address": "HotelPension KARIBUNI,Neckarstraße 2,12053,Berlin", "latitude": 52.480568, "longitude": 13.435244 }, "geometry": { "type": "Point", "coordinates": [ 13.435244, 52.480568 ] } },
{ "type": "Feature", "properties": { "original address": "Quartiersrat Flughafenstraße,Erlanger Straße 13,12053,Berlin", "latitude": 52.481950, "longitude": 13.429880 }, "geometry": { "type": "Point", "coordinates": [ 13.42988, 52.48195 ] } },
{ "type": "Feature", "properties": { "original address": "Umweltconsulting Dr. Hoffmann,Neckarstraße 5,12053,Berlin", "latitude": 52.480414, "longitude": 13.434319 }, "geometry": { "type": "Point", "coordinates": [ 13.434319, 52.480414 ] } },
{ "type": "Feature", "properties": { "original address": "Agora Collective,Mittelweg 50,12053,Berlin", "latitude": 52.475625, "longitude": 13.430344 }, "geometry": { "type": "Point", "coordinates": [ 13.430344, 52.475625 ] } },
{ "type": "Feature", "properties": { "original address": "Open State gUG,Mittelweg 50,12053,Berlin", "latitude": 52.475625, "longitude": 13.430344 }, "geometry": { "type": "Point", "coordinates": [ 13.430344, 52.475625 ] } },
{ "type": "Feature", "properties": { "original address": "10hoch16 GbR,Mittelweg 50,12053,Berlin", "latitude": 52.475625, "longitude": 13.430344 }, "geometry": { "type": "Point", "coordinates": [ 13.430344, 52.475625 ] } },
{ "type": "Feature", "properties": { "original address": "Hans Hoffmann", "latitude": 0.000000, "longitude": 0.000000 }, "geometry": { "type": "Point", "coordinates": [ 0.0, 0.0 ] } },
{ "type": "Feature", "properties": { "original address": "dm-drogeriemarkt GmbH & Co. KG,Joachim-Gottschalk-Weg 21,12353,Berlin", "latitude": 52.422820, "longitude": 13.475210 }, "geometry": { "type": "Point", "coordinates": [ 13.47521, 52.42282 ] } },
{ "type": "Feature", "properties": { "original address": "Berlin 21 e.V.,Greifswalder Straße 4,10405,Berlin", "latitude": 52.528640, "longitude": 13.425454 }, "geometry": { "type": "Point", "coordinates": [ 13.425454, 52.52864 ] } },
{ "type": "Feature", "properties": { "original address": "Elterninitiativkita Kunger Küken e.V.,Wildenbruchstraße 41,12045,Berlin", "latitude": 52.489370, "longitude": 13.450920 }, "geometry": { "type": "Point", "coordinates": [ 13.45092, 52.48937 ] } },
{ "type": "Feature", "properties": { "original address": "endorphina BACKKUNST GmbH,Elsenstraße 52,12059,Berlin", "latitude": 52.485683, "longitude": 13.449017 }, "geometry": { "type": "Point", "coordinates": [ 13.449017, 52.485683 ] } },
{ "type": "Feature", "properties": { "original address": "Happarel Bicycles,Urbanstraße 71,10967,Berlin", "latitude": 52.488369, "longitude": 13.423109 }, "geometry": { "type": "Point", "coordinates": [ 13.423109, 52.488369 ] } }
]
}
