{
   "type": "FeatureCollection",
   "features": [
  {
    "type": "Feature",
    "geometry": {
       "type": "Point",
       "coordinates":  [ 13.4530693,52.4730524 ]
    },
    "properties": {
    "name":"A-Z Wohnhilfen Berlin gGmbH",
    "street":"Braunschweiger Straße 17",
    "postcode":12055,
    "city":"Berlin",
    "complete address":"Braunschweiger Straße 17, 12055, Berlin",
    "website":"http://www.a-z-hilfen.de/"
    }
  },
  {
    "type": "Feature",
    "geometry": {
       "type": "Point",
       "coordinates":  [ 13.44557,52.4711 ]
    },
    "properties": {
    "name":"Azam Getränkeshop",
    "street":"Braunschweiger Straße 58",
    "postcode":12055,
    "city":"Berlin",
    "complete address":"Braunschweiger Straße 58, 12055, Berlin",
    "website":"https://www.facebook.com/pages/Azam-Getr%C3%A4nkeshop/1406223796363047"
    }
  },
  {
    "type": "Feature",
    "geometry": {
       "type": "Point",
       "coordinates":  [ 13.4526551,52.4732473 ]
    },
    "properties": {
    "name":"Badkultur Berlin",
    "street":"Braunschweiger Straße 16",
    "postcode":12055,
    "city":"Berlin",
    "complete address":"Braunschweiger Straße 16, 12055, Berlin",
    "website":"http://www.badkultur-berlin.de/"
    }
  },
  {
    "type": "Feature",
    "geometry": {
       "type": "Point",
       "coordinates":  [ 13.4475474,52.4712488 ]
    },
    "properties": {
    "name":"Bierbaronesse",
    "street":"Braunschweiger Straße 46",
    "postcode":12055,
    "city":"Berlin",
    "complete address":"Braunschweiger Straße 46, 12055, Berlin",
    "website":"https://bierbaroness.com/"
    }
  },
  {
    "type": "Feature",
    "geometry": {
       "type": "Point",
       "coordinates":  [ 13.44971,52.47426 ]
    },
    "properties": {
    "name":"Café-Bar Mal so – Mal so",
    "street":"Böhmische Str. 14",
    "postcode":12055,
    "city":"Berlin",
    "complete address":"Böhmische Str. 14, 12055, Berlin",
    "website":"http://www.malso-malso.de/"
    }
  },
  {
    "type": "Feature",
    "geometry": {
       "type": "Point",
       "coordinates":  [ 13.4426702,52.4738267 ]
    },
    "properties": {
    "name":"DAS KAPiTAL",
    "street":"Karl-Marx-Platz 18",
    "postcode":12043,
    "city":"Berlin",
    "complete address":"Karl-Marx-Platz 18, 12043, Berlin",
    "website":"http://www.kapital.menu/"
    }
  },
  {
    "type": "Feature",
    "geometry": {
       "type": "Point",
       "coordinates":  [ 13.44499,52.47371 ]
    },
    "properties": {
    "name":"Buchhandlung „Die gute Seite“",
    "street":"Richardplatz 16",
    "postcode":12055,
    "city":"Berlin",
    "complete address":"Richardplatz 16, 12055, Berlin",
    "website":"http://www.dieguteseiteberlin.de/"
    }
  },
  {
    "type": "Feature",
    "geometry": {
       "type": "Point",
       "coordinates":  [ 13.443341,52.4739834 ]
    },
    "properties": {
    "name":"Dr. Pogo Veganladen-Kollektiv",
    "street":"Karl-Marx-Platz 24",
    "postcode":12043,
    "city":"Berlin",
    "complete address":"Karl-Marx-Platz 24, 12043, Berlin",
    "website":"http://www.veganladen-kollektiv.net/veganladen/"
    }
  },
  {
    "type": "Feature",
    "geometry": {
       "type": "Point",
       "coordinates":  [ 13.4526551,52.4732473 ]
    },
    "properties": {
    "name":"gefahrenzone",
    "street":"Braunschweiger Straße 16",
    "postcode":12055,
    "city":"Berlin",
    "complete address":"Braunschweiger Straße 16, 12055, Berlin",
    "website":"http://www.gefahrenzone.eu"
    }
  },
  {
    "type": "Feature",
    "geometry": {
       "type": "Point",
       "coordinates":  [ 13.442796,52.4702166 ]
    },
    "properties": {
    "name":"Grünes Bürger*innen Büro",
    "street":"Wipperstraße 25",
    "postcode":12055,
    "city":"Berlin",
    "complete address":"Wipperstraße 25, 12055, Berlin",
    "website":"http://www.gruene-fraktion-berlin.de/"
    }
  },
  {
    "type": "Feature",
    "geometry": {
       "type": "Point",
       "coordinates":  [ 13.4487708,52.4724989 ]
    },
    "properties": {
    "name":"Löwenzahn-Schule",
    "street":"Drorystraße 3",
    "postcode":12055,
    "city":"Berlin",
    "complete address":"Drorystraße 3, 12055, Berlin",
    "website":"http://www.loewenzahn-schule.de/"
    }
  },
  {
    "type": "Feature",
    "geometry": {
       "type": "Point",
       "coordinates":  [ 13.4499734,52.4713454 ]
    },
    "properties": {
    "name":"Haarnomade",
    "street":"Hetzbergstraße",
    "postcode":12055,
    "city":"Berlin",
    "complete address":"Hetzbergstraße, 12055, Berlin",
    "website":"https://www.facebook.com/Haarnomade/"
    }
  },
  {
    "type": "Feature",
    "geometry": {
       "type": "Point",
       "coordinates":  [ 13.4433126,52.4729615 ]
    },
    "properties": {
    "name":"Heute ist Morgen",
    "street":"Kirchhofstraße 45",
    "postcode":12055,
    "city":"Berlin",
    "complete address":"Kirchhofstraße 45, 12055, Berlin",
    "website":"https://heuteistmorgen.de/"
    }
  },
  {
    "type": "Feature",
    "geometry": {
       "type": "Point",
       "coordinates":  [ 13.45351,52.4727 ]
    },
    "properties": {
    "name":"ITZ – Interkulturelles Theaterzentrum Berlin e.V.",
    "street":"Schudomastraße 32",
    "postcode":12055,
    "city":"Berlin",
    "complete address":"Schudomastraße 32, 12055, Berlin",
    "website":"http://www.kulturnetzwerk.de/index.php/mitglieder/10-kulturnetzwerk-neukoelln-e-v-mitglieder/38-interkulturelles-theater-zentrum"
    }
  },
  {
    "type": "Feature",
    "geometry": {
       "type": "Point",
       "coordinates":  [ 13.4459961,52.4707515 ]
    },
    "properties": {
    "name":"Kita Großstadtzwerge",
    "street":"Braunschweiger Straße 57",
    "postcode":12055,
    "city":"Berlin",
    "complete address":"Braunschweiger Straße 57, 12055, Berlin",
    "website":"http://www.grossstadtzwerge.de/"
    }
  },
  {
    "type": "Feature",
    "geometry": {
       "type": "Point",
       "coordinates":  [ 13.4442401,52.471815 ]
    },
    "properties": {
    "name":"Kinderladen „Kleine Fische“ Kleinkindpädagogik e.V.",
    "street":"Schöneweider Straße 20",
    "postcode":12055,
    "city":"Berlin",
    "complete address":"Schöneweider Straße 20, 12055, Berlin",
    "website":"http://www.kleine-fische-berlin.de/"
    }
  },
  {
    "type": "Feature",
    "geometry": {
       "type": "Point",
       "coordinates":  [ 13.44795,52.47313 ]
    },
    "properties": {
    "name":"Königliche Backstube",
    "street":"Zwiestädter Straße 12",
    "postcode":12055,
    "city":"Berlin",
    "complete address":"Zwiestädter Straße 12, 12055, Berlin",
    "website":"http://www.koenigliche-backstube.berlin/"
    }
  },
  {
    "type": "Feature",
    "geometry": {
       "type": "Point",
       "coordinates":  [ 13.4419625,52.473712 ]
    },
    "properties": {
    "name":"Neon Neue Energieökonomik GmbH",
    "street":"Karl-Marx-Platz 12",
    "postcode":12043,
    "city":"Berlin",
    "complete address":"Karl-Marx-Platz 12, 12043, Berlin",
    "website":"http://neon-energie.de/en/"
    }
  },
  {
    "type": "Feature",
    "geometry": {
       "type": "Point",
       "coordinates":  [ 13.4487626,52.4729576 ]
    },
    "properties": {
    "name":"Quartiersmanagement Richardplatz Süd",
    "street":"Böhmische Straße 9",
    "postcode":12055,
    "city":"Berlin",
    "complete address":"Böhmische Straße 9, 12055, Berlin",
    "website":"http://www.richard-quartier.de/"
    }
  },
  {
    "type": "Feature",
    "geometry": {
       "type": "Point",
       "coordinates":  [ 13.441625,52.4736006 ]
    },
    "properties": {
    "name":"Weinhandlung Balera",
    "street":"Karl-Marx-Platz 6",
    "postcode":12043,
    "city":"Berlin",
    "complete address":"Karl-Marx-Platz 6, 12043, Berlin",
    "website":"http://baleraweine.com/"
    }
  },
  {
    "type": "Feature",
    "geometry": {
       "type": "Point",
       "coordinates":  [ 13.4358849,52.4798789 ]
    },
    "properties": {
    "name":"dm-drogeriemarkt GmbH & Co. KG",
    "street":"Karl-Marx-Straße 92-98",
    "postcode":12053,
    "city":"Berlin",
    "complete address":"Karl-Marx-Straße 92-98, 12053, Berlin",
    "website":"https://www.dm.de/"
    }
  },
  {
    "type": "Feature",
    "geometry": {
       "type": "Point",
       "coordinates":  [ 13.43961,52.47475 ]
    },
    "properties": {
    "name":"Hausarztpraxis Dr. Robert Holzer",
    "street":"Karl-Marx-Straße 172",
    "postcode":12043,
    "city":"Berlin",
    "complete address":"Karl-Marx-Straße 172, 12043, Berlin",
    "website":"https://hausarzt-holzer.de/"
    }
  },
  {
    "type": "Feature",
    "geometry": {
       "type": "Point",
       "coordinates":  [ 13.4387452,52.4782084 ]
    },
    "properties": {
    "name":"Bottega Nr. 6",
    "street":"Richardstraße 6",
    "postcode":12043,
    "city":"Berlin",
    "complete address":"Richardstraße 6, 12043, Berlin",
    "website":"https://www.facebook.com/bottegan6/"
    }
  },
  {
    "type": "Feature",
    "geometry": {
       "type": "Point",
       "coordinates":  [ 13.4480971,52.4771448 ]
    },
    "properties": {
    "name":"Café Dritter Raum",
    "street":"Hertzbergstraße 14",
    "postcode":12055,
    "city":"Berlin",
    "complete address":"Hertzbergstraße 14, 12055, Berlin",
    "website":"http://www.cafe-dritter-raum.de/"
    }
  },
  {
    "type": "Feature",
    "geometry": {
       "type": "Point",
       "coordinates":  [ 13.43875,52.4781 ]
    },
    "properties": {
    "name":"Kinder Second-Handladen Pünktchen & Caro",
    "street":"Richardstraße 7",
    "postcode":12043,
    "city":"Berlin",
    "complete address":"Richardstraße 7, 12043, Berlin"
    }
  },
  {
    "type": "Feature",
    "geometry": {
       "type": "Point",
       "coordinates":  [ 13.4234964,52.474694 ]
    },
    "properties": {
    "name":"Bike Mike",
    "street":"Allerstraße 35",
    "postcode":12049,
    "city":"Berlin",
    "complete address":"Allerstraße 35, 12049, Berlin"
    }
  },
  {
    "type": "Feature",
    "geometry": {
       "type": "Point",
       "coordinates":  [ 13.4225773,52.4785968 ]
    },
    "properties": {
    "name":"Bloomage Daydream",
    "street":"Selchower Straße 27",
    "postcode":12049,
    "city":"Berlin",
    "complete address":"Selchower Straße 27, 12049, Berlin",
    "website":"https://www.bloomagedaydream.com/"
    }
  },
  {
    "type": "Feature",
    "geometry": {
       "type": "Point",
       "coordinates":  [ 13.4213418,52.4817436 ]
    },
    "properties": {
    "name":"Café Blume",
    "street":"Fontanestraße 32",
    "postcode":12049,
    "city":"Berlin",
    "complete address":"Fontanestraße 32, 12049, Berlin",
    "website":"http://www.cafe-blume-berlin.de/"
    }
  },
  {
    "type": "Feature",
    "geometry": {
       "type": "Point",
       "coordinates":  [ 13.42719,52.47033 ]
    },
    "properties": {
    "name":"Café Lipopette",
    "street":"Warthestraße 9",
    "postcode":12051,
    "city":"Berlin",
    "complete address":"Warthestraße 9, 12051, Berlin",
    "website":"https://www.facebook.com/lipopetteberlin/"
    }
  },
  {
    "type": "Feature",
    "geometry": {
       "type": "Point",
       "coordinates":  [ 13.4233851,52.4819011 ]
    },
    "properties": {
    "name":"China By Bike",
    "street":"Karlsgartenstraße 19",
    "postcode":12049,
    "city":"Berlin",
    "complete address":"Karlsgartenstraße 19, 12049, Berlin",
    "website":"http://www.china-by-bike.de/"
    }
  },
  {
    "type": "Feature",
    "geometry": {
       "type": "Point",
       "coordinates":  [ 13.418169,52.4748605 ]
    },
    "properties": {
    "name":"Ella die Zweiräder",
    "street":"Herrfurthstraße 1",
    "postcode":12049,
    "city":"Berlin",
    "complete address":"Herrfurthstraße 1, 12049, Berlin"
    }
  },
  {
    "type": "Feature",
    "geometry": {
       "type": "Point",
       "coordinates":  [ 13.4238434,52.4785333 ]
    },
    "properties": {
    "name":"English Traders",
    "street":"Weisestraße 58",
    "postcode":12049,
    "city":"Berlin",
    "complete address":"Weisestraße 58, 12049, Berlin",
    "website":"http://www.englishtraders.de/"
    }
  },
  {
    "type": "Feature",
    "geometry": {
       "type": "Point",
       "coordinates":  [ 13.42617,52.46982 ]
    },
    "properties": {
    "name":"FiPP e.V. – Kita Warthestraße",
    "street":"Warthestraße 62a",
    "postcode":12051,
    "city":"Berlin",
    "complete address":"Warthestraße 62a, 12051, Berlin"
    }
  },
  {
    "type": "Feature",
    "geometry": {
       "type": "Point",
       "coordinates":  [ 13.42436,52.48145 ]
    },
    "properties": {
    "name":"Guido’s Fahrradwelt",
    "street":"Hermannstraße 32",
    "postcode":12049,
    "city":"Berlin",
    "complete address":"Hermannstraße 32, 12049, Berlin",
    "website":"http://www.guidos-fahrradwelt.de/"
    }
  },
  {
    "type": "Feature",
    "geometry": {
       "type": "Point",
       "coordinates":  [ 13.4257124,52.4701995 ]
    },
    "properties": {
    "name":"Kita Horizon e.V.",
    "street":"Warthestraße 15",
    "postcode":12051,
    "city":"Berlin",
    "complete address":"Warthestraße 15, 12051, Berlin",
    "website":"http://www.kita-berlin.de/618-0-horizon-e-v-.html"
    }
  },
  {
    "type": "Feature",
    "geometry": {
       "type": "Point",
       "coordinates":  [ 13.4234732,52.4852917 ]
    },
    "properties": {
    "name":"Lesotre / Conceptual Brand Creation",
    "street":"Wissmannstraße 5",
    "postcode":12049,
    "city":"Berlin",
    "complete address":"Wissmannstraße 5, 12049, Berlin",
    "website":"http://lesotre.de/"
    }
  },
  {
    "type": "Feature",
    "geometry": {
       "type": "Point",
       "coordinates":  [ 13.4238434,52.4785333 ]
    },
    "properties": {
    "name":"N°58 Speiserei",
    "street":"Weisestraße 58",
    "postcode":12049,
    "city":"Berlin",
    "complete address":"Weisestraße 58, 12049, Berlin",
    "website":"http://www.no58speiserei.de/"
    }
  },
  {
    "type": "Feature",
    "geometry": {
       "type": "Point",
       "coordinates":  [ 13.42055,52.47714 ]
    },
    "properties": {
    "name":"Salon Daniela",
    "street":"Herrfurthstraße 12",
    "postcode":12049,
    "city":"Berlin",
    "complete address":"Herrfurthstraße 12, 12049, Berlin"
    }
  },
  {
    "type": "Feature",
    "geometry": {
       "type": "Point",
       "coordinates":  [ 13.42177,52.47603 ]
    },
    "properties": {
    "name":"Quartiersmanagement Schillerpromenade",
    "street":"Schillerpromenade 10",
    "postcode":12049,
    "city":"Berlin",
    "complete address":"Schillerpromenade 10, 12049, Berlin",
    "website":"http://www.schillerpromenade-quartier.de/"
    }
  },
  {
    "type": "Feature",
    "geometry": {
       "type": "Point",
       "coordinates":  [ 13.4274368,52.4752638 ]
    },
    "properties": {
    "name":"BioCompany",
    "street":"Hermannstraße 199",
    "postcode":12049,
    "city":"Berlin",
    "complete address":"Hermannstraße 199, 12049, Berlin",
    "website":"https://www.biocompany.de/"
    }
  },
  {
    "type": "Feature",
    "geometry": {
       "type": "Point",
       "coordinates":  [ 13.4215185,52.4859404 ]
    },
    "properties": {
    "name":"dm-drogeriemarkt GmbH & Co.KG",
    "street":"Hasenheide 107-108",
    "postcode":10967,
    "city":"Berlin",
    "complete address":"Hasenheide 107-108, 10967, Berlin",
    "website":"https://www.dm.de/"
    }
  },
  {
    "type": "Feature",
    "geometry": {
       "type": "Point",
       "coordinates":  [ 13.4258734,52.4777783 ]
    },
    "properties": {
    "name":"Nuts & Co.",
    "street":"Hermannstraße 52",
    "postcode":12049,
    "city":"Berlin",
    "complete address":"Hermannstraße 52, 12049, Berlin",
    "website":"http://nuts-co.berlin/"
    }
  },
  {
    "type": "Feature",
    "geometry": {
       "type": "Point",
       "coordinates":  [ 13.42406,52.48103 ]
    },
    "properties": {
    "name":"Taschengeldfirma e.V./Radwerkstatt ThF",
    "street":"Flughafenstraße 62",
    "postcode":12049,
    "city":"Berlin",
    "complete address":"Flughafenstraße 62, 12049, Berlin",
    "website":"http://www.taschengeldfirma.net/"
    }
  },
  {
    "type": "Feature",
    "geometry": {
       "type": "Point",
       "coordinates":  [ 13.4367644,52.4700898 ]
    },
    "properties": {
    "name":"Amalia – Café/Bar",
    "street":"Nogatstraße 6",
    "postcode":12051,
    "city":"Berlin",
    "complete address":"Nogatstraße 6, 12051, Berlin"
    }
  },
  {
    "type": "Feature",
    "geometry": {
       "type": "Point",
       "coordinates":  [ 13.4334578,52.4715196 ]
    },
    "properties": {
    "name":"Home Café",
    "street":"Jonasstraße 23",
    "postcode":12053,
    "city":"Berlin",
    "complete address":"Jonasstraße 23, 12053, Berlin",
    "website":"http://www.doppelberlin.com/home-cafe/"
    }
  },
  {
    "type": "Feature",
    "geometry": {
       "type": "Point",
       "coordinates":  [ 13.43249,52.46839 ]
    },
    "properties": {
    "name":"Leuchtstoff – Kaffeebar",
    "street":"Siegfriedstraße 18",
    "postcode":12051,
    "city":"Berlin",
    "complete address":"Siegfriedstraße 18, 12051, Berlin",
    "website":"http://www.doppelberlin.com/leuchtstoff-kaffeebar/"
    }
  },
  {
    "type": "Feature",
    "geometry": {
       "type": "Point",
       "coordinates":  [ 13.438535,52.4706535 ]
    },
    "properties": {
    "name":"Nachbarschaftsheim Neukölln e.V.",
    "street":"Schierker Straße 53",
    "postcode":12051,
    "city":"Berlin",
    "complete address":"Schierker Straße 53, 12051, Berlin",
    "website":"http://www.nbh-neukoelln.de/"
    }
  },
  {
    "type": "Feature",
    "geometry": {
       "type": "Point",
       "coordinates":  [ 13.4368305,52.4701527 ]
    },
    "properties": {
    "name":"Nini e Pettirosso – Pizzeria",
    "street":"Selkestraße 27",
    "postcode":12051,
    "city":"Berlin",
    "complete address":"Selkestraße 27, 12051, Berlin",
    "website":"https://www.facebook.com/pages/Nini-e-Pettirosso/142700262504746"
    }
  },
  {
    "type": "Feature",
    "geometry": {
       "type": "Point",
       "coordinates":  [ 13.43548,52.47189 ]
    },
    "properties": {
    "name":"Peter-Petersen-Schule",
    "street":"Jonasstraße 15",
    "postcode":12053,
    "city":"Berlin",
    "complete address":"Jonasstraße 15, 12053, Berlin",
    "website":"http://www.pps.cidsnet.de/"
    }
  },
  {
    "type": "Feature",
    "geometry": {
       "type": "Point",
       "coordinates":  [ 13.4337227,52.4715512 ]
    },
    "properties": {
    "name":"Prachtsaal",
    "street":"Jonasstraße 22",
    "postcode":12053,
    "city":"Berlin",
    "complete address":"Jonasstraße 22, 12053, Berlin"
    }
  },
  {
    "type": "Feature",
    "geometry": {
       "type": "Point",
       "coordinates":  [ 13.436226,52.4690785 ]
    },
    "properties": {
    "name":"WerkStadt Berlin e.V.",
    "street":"Emser Straße 124",
    "postcode":12051,
    "city":"Berlin",
    "complete address":"Emser Straße 124, 12051, Berlin"
    }
  },
  {
    "type": "Feature",
    "geometry": {
       "type": "Point",
       "coordinates":  [ 13.4326987,52.4722196 ]
    },
    "properties": {
    "name":"ZINS Organic Haircare Salon",
    "street":"Thomasstraße 59",
    "postcode":12053,
    "city":"Berlin",
    "complete address":"Thomasstraße 59, 12053, Berlin",
    "website":"http://zins-ohcs.com/"
    }
  },
  {
    "type": "Feature",
    "geometry": {
       "type": "Point",
       "coordinates":  [ 13.4239822,52.4920341 ]
    },
    "properties": {
    "name":"die marktplaner",
    "street":"Sanderstraße 4",
    "postcode":12047,
    "city":"Berlin",
    "complete address":"Sanderstraße 4, 12047, Berlin",
    "website":"http://www.diemarktplaner.de/"
    }
  },
  {
    "type": "Feature",
    "geometry": {
       "type": "Point",
       "coordinates":  [ 13.4285635,52.4893757 ]
    },
    "properties": {
    "name":"nbBildungsconsulting",
    "street":"Reuterstraße 51",
    "postcode":12047,
    "city":"Berlin",
    "complete address":"Reuterstraße 51, 12047, Berlin",
    "website":"http://www.nb-bildungsconsulting.de/home/"
    }
  },
  {
    "type": "Feature",
    "geometry": {
       "type": "Point",
       "coordinates":  [ 13.4288438,52.4890936 ]
    },
    "properties": {
    "name":"standard saubere sachen",
    "street":"Reuterstraße 53",
    "postcode":12047,
    "city":"Berlin",
    "complete address":"Reuterstraße 53, 12047, Berlin",
    "website":"http://www.standard-saubere-sachen.de/"
    }
  },
  {
    "type": "Feature",
    "geometry": {
       "type": "Point",
       "coordinates":  [ 13.42549,52.4919 ]
    },
    "properties": {
    "name":"Upcycling",
    "street":"Hobrechtstraße 54",
    "postcode":12047,
    "city":"Berlin",
    "complete address":"Hobrechtstraße 54, 12047, Berlin",
    "website":"http://www.upcycling.mobi/"
    }
  },
  {
    "type": "Feature",
    "geometry": {
       "type": "Point",
       "coordinates":  [ 13.4414,52.4849 ]
    },
    "properties": {
    "name":"Däumelarchiv",
    "street":"Elbestraße 15",
    "postcode":12045,
    "city":"Berlin",
    "complete address":"Elbestraße 15, 12045, Berlin",
    "website":"http://www.xn--dumel-gra.de/"
    }
  },
  {
    "type": "Feature",
    "geometry": {
       "type": "Point",
       "coordinates":  [ 13.4386131,52.4889948 ]
    },
    "properties": {
    "name":"Café Rudimarie",
    "street":"Weichselstraße 34",
    "postcode":12045,
    "city":"Berlin",
    "complete address":"Weichselstraße 34, 12045, Berlin",
    "website":"http://rudimarie.de/rudimarie/"
    }
  },
  {
    "type": "Feature",
    "geometry": {
       "type": "Point",
       "coordinates":  [ 13.43862,52.4828484 ]
    },
    "properties": {
    "name":"Moghul Rikschas",
    "street":"Elbestraße 1",
    "postcode":12045,
    "city":"Berlin",
    "complete address":"Elbestraße 1, 12045, Berlin",
    "website":"http://www.moghul-rikschas.de/"
    }
  },
  {
    "type": "Feature",
    "geometry": {
       "type": "Point",
       "coordinates":  [ 13.4398631,52.4851303 ]
    },
    "properties": {
    "name":"spreegut Lehr- und Kreativitätsmethoden",
    "street":"Elbestraße 28",
    "postcode":12045,
    "city":"Berlin",
    "complete address":"Elbestraße 28, 12045, Berlin",
    "website":"http://spreegut.de/"
    }
  },
  {
    "type": "Feature",
    "geometry": {
       "type": "Point",
       "coordinates":  [ 13.45006,52.4872 ]
    },
    "properties": {
    "name":"Veltliner & Co",
    "street":"Wildenbruchstraße 32b",
    "postcode":12045,
    "city":"Berlin",
    "complete address":"Wildenbruchstraße 32b, 12045, Berlin",
    "website":"http://veltlinerco.de/"
    }
  },
  {
    "type": "Feature",
    "geometry": {
       "type": "Point",
       "coordinates":  [ 13.4337286,52.4845179 ]
    },
    "properties": {
    "name":"BioCompany",
    "street":"Sonnenallee 60",
    "postcode":12045,
    "city":"Berlin",
    "complete address":"Sonnenallee 60, 12045, Berlin",
    "website":"https://www.biocompany.de"
    }
  },
  {
    "type": "Feature",
    "geometry": {
       "type": "Point",
       "coordinates":  [ 13.433093,52.4848587 ]
    },
    "properties": {
    "name":"STIL Kooperation Berlin",
    "street":"Sonnenalle 58",
    "postcode":12045,
    "city":"Berlin",
    "complete address":"Sonnenalle 58, 12045, Berlin",
    "website":"http://stilkooperation-berlin.de/"
    }
  },
  {
    "type": "Feature",
    "geometry": {
       "type": "Point",
       "coordinates":  [ 13.4343191,52.4804138 ]
    },
    "properties": {
    "name":"Hausverwaltung Dr. Hoffmann",
    "street":"Neckarstraße 5",
    "postcode":12053,
    "city":"Berlin",
    "complete address":"Neckarstraße 5, 12053, Berlin"
    }
  },
  {
    "type": "Feature",
    "geometry": {
       "type": "Point",
       "coordinates":  [ 13.435244,52.4805683 ]
    },
    "properties": {
    "name":"HotelPension KARIBUNI",
    "street":"Neckarstraße 2",
    "postcode":12053,
    "city":"Berlin",
    "complete address":"Neckarstraße 2, 12053, Berlin",
    "website":"http://www.karibuni-hotel.de/"
    }
  },
  {
    "type": "Feature",
    "geometry": {
       "type": "Point",
       "coordinates":  [ 13.4300182,52.4819611 ]
    },
    "properties": {
    "name":"Quartiersrat Flughafenstraße",
    "street":"Erlanger Straße 13",
    "postcode":12053,
    "city":"Berlin",
    "complete address":"Erlanger Straße 13, 12053, Berlin",
    "website":"http://www.qm-flughafenstrasse.de/"
    }
  },
  {
    "type": "Feature",
    "geometry": {
       "type": "Point",
       "coordinates":  [ 13.4343191,52.4804138 ]
    },
    "properties": {
    "name":"Umweltconsulting Dr. Hoffmann",
    "street":"Neckarstraße 5",
    "postcode":12053,
    "city":"Berlin",
    "complete address":"Neckarstraße 5, 12053, Berlin",
    "website":"http://www.umweltconsulting.biz/"
    }
  },
  {
    "type": "Feature",
    "geometry": {
       "type": "Point",
       "coordinates":  [ 13.4303437,52.4756251 ]
    },
    "properties": {
    "name":"Agora Collective",
    "street":"Mittelweg 50",
    "postcode":12053,
    "city":"Berlin",
    "complete address":"Mittelweg 50, 12053, Berlin",
    "website":"http://agoracollective.org/"
    }
  },
  {
    "type": "Feature",
    "geometry": {
       "type": "Point",
       "coordinates":  [ 13.4303437,52.4756251 ]
    },
    "properties": {
    "name":"Open State gUG",
    "street":"Mittelweg 50",
    "postcode":12053,
    "city":"Berlin",
    "complete address":"Mittelweg 50, 12053, Berlin"
    }
  },
  {
    "type": "Feature",
    "geometry": {
       "type": "Point",
       "coordinates":  [ 13.4303437,52.4756251 ]
    },
    "properties": {
    "name":"10hoch16 GbR",
    "street":"Mittelweg 50",
    "postcode":12053,
    "city":"Berlin",
    "complete address":"Mittelweg 50, 12053, Berlin",
    "website":"http://www.10hoch16.de/"
    }
  },
  {
    "type": "Feature",
    "geometry": {
       "type": "Point",
       "coordinates":  [ 13.4655742,52.461795 ]
    },
    "properties": {
    "name":"Hans Hoffmann, Trocken- und Lackierofenfabrik, Apparatebau GmbH & Co. KG",
    "street":"Boschweg 10",
    "postcode":12057,
    "city":"Berlin",
    "complete address":"Boschweg 10, 12057, Berlin",
    "website":"http://www.ofen-hoffmann.de/"
    }
  },
  {
    "type": "Feature",
    "geometry": {
       "type": "Point",
       "coordinates":  [ 13.47521,52.42282 ]
    },
    "properties": {
    "name":"dm-drogeriemarkt GmbH & Co. KG",
    "street":"Joachim-Gottschalk-Weg 21",
    "postcode":12353,
    "city":"Berlin",
    "complete address":"Joachim-Gottschalk-Weg 21, 12353, Berlin",
    "website":"https://www.dm.de/"
    }
  },
  {
    "type": "Feature",
    "geometry": {
       "type": "Point",
       "coordinates":  [ 13.4254535,52.5286403 ]
    },
    "properties": {
    "name":"Berlin 21 e.V.",
    "street":"Greifswalder Straße 4",
    "postcode":10405,
    "city":"Berlin",
    "complete address":"Greifswalder Straße 4, 10405, Berlin",
    "website":"http://www.berlin21.net/"
    }
  },
  {
    "type": "Feature",
    "geometry": {
       "type": "Point",
       "coordinates":  [ 13.450959,52.4893053 ]
    },
    "properties": {
    "name":"Elterninitiativkita Kunger Küken e.V.",
    "street":"Wildenbruchstraße 41",
    "postcode":12045,
    "city":"Berlin",
    "complete address":"Wildenbruchstraße 41, 12045, Berlin",
    "website":"https://kungerkueken.de/"
    }
  },
  {
    "type": "Feature",
    "geometry": {
       "type": "Point",
       "coordinates":  [ 13.4490171,52.4856831 ]
    },
    "properties": {
    "name":"endorphina BACKKUNST GmbH",
    "street":"Elsenstraße 52",
    "postcode":12059,
    "city":"Berlin",
    "complete address":"Elsenstraße 52, 12059, Berlin",
    "website":"http://endorphina.de/"
    }
  },
  {
    "type": "Feature",
    "geometry": {
       "type": "Point",
       "coordinates":  [ 13.4231085,52.488369 ]
    },
    "properties": {
    "name":"Happarel Bicycles",
    "street":"Urbanstraße 71",
    "postcode":10967,
    "city":"Berlin",
    "complete address":"Urbanstraße 71, 10967, Berlin",
    "website":"http://happarelbicycles.berlin/"
    }
  },
  {
    "type": "Feature",
    "geometry": {
       "type": "Point",
       "coordinates":  [ 13.4236226,52.4674672 ]
    },
    "properties": {
    "name":"Kindertagesstätten SüdOst",
    "street":"Emser Straße 81",
    "postcode":12051,
    "city":"Berlin",
    "complete address":"Emser Straße 81, 12051, Berlin",
    "website":"http://www.kindertagesstaetten-suedost.de/"
    }
  },
  {
    "type": "Feature",
    "geometry": {
       "type": "Point",
       "coordinates":  [ 13.42953,52.48665 ]
    },
    "properties": {
    "name":"cargobike.jetzt",
    "street":"Sonnenallee 27",
    "postcode":12047,
    "city":"Berlin",
    "complete address":"Sonnenallee 27, 12047, Berlin",
    "website":"http://cargobike.jetzt/"
    }
  },
  {
    "type": "Feature",
    "geometry": {
       "type": "Point",
       "coordinates":  [ 13.44908,52.47445 ]
    },
    "properties": {
    "name":"Rotbart",
    "street":"Böhmische Str. 43",
    "postcode":12055,
    "city":"Berlin",
    "complete address":"Böhmische Str. 43, 12055, Berlin",
    "website":"http://www.rotbart-rixdorf.de/"
    }
  },
  {
    "type": "Feature",
    "geometry": {
       "type": "Point",
       "coordinates":  [ 13.4388571,52.4790697 ]
    },
    "properties": {
    "name":"Prachtwerk",
    "street":"Ganghoferstraße 2",
    "postcode":12043,
    "city":"Berlin",
    "complete address":"Ganghoferstraße 2, 12043, Berlin",
    "website":"http://prachtwerkberlin.com/"
    }
  },
  {
    "type": "Feature",
    "geometry": {
       "type": "Point",
       "coordinates":  [ 13.5313319,52.4562779 ]
    },
    "properties": {
    "name":"ZIMMER Fahrradtaschen und Portemonnaies",
    "street":"Ostendstraße 1-14",
    "postcode":12459,
    "city":"Berlin",
    "complete address":"Ostendstraße 1-14, 12459, Berlin",
    "website":"https://www.zimmer-fahrradtaschen.de/"
    }
  },
  {
    "type": "Feature",
    "geometry": {
       "type": "Point",
       "coordinates":  [ 13.42512,52.48987 ]
    },
    "properties": {
    "name":"Rückenwind e.V.",
    "street":"Lenaustraße 3",
    "postcode":12047,
    "city":"Berlin",
    "complete address":"Lenaustraße 3, 12047, Berlin",
    "website":"http://rueckenwind.berlin/"
    }
  }
]
}